stop_id,stop_name,stop_lat,stop_lon
123,Vidin Patnicheska,43.974565,22.851949
935,Vadu Siretului,48.023902,25.959942
936,Ungheni Prut Fr.,47.199948,27.786977
09408,Tiborszallas,47.815316,22.402861
09410,Nyirabrany,47.523867,22.016129
09422,Biharkeresztes,47.135644,21.721945
09446,Kotegyan,46.758621,21.478958
09461,Lokoshaza,46.432193,21.238042
09661,Vrsac,45.10491,21.283693
09711,Ruse,43.857121,25.976744
10017,Bucureşti Nord Gr.A,44.446652,26.073465
10079,Bucureşti Basarab h.,44.458753,26.055381
10081,Carpaţi h.(900),44.468198,26.040908
10108,Bucureştii Noi,44.475528,26.014967
10146,Chiajna,44.470457,25.980683
10158,Parc Divertisment Chiajna h.,44.432983,25.941827
10172,Domneştii de Sus h.,44.406098,25.892391
10201,Gradinari,44.381596,25.825095
10225,Zorile h.,44.360106,25.762152
10249,Vadu Lat Hm.,44.342738,25.702543
10251,Angheleşti h.,44.323022,25.646403
10263,Zăvestreni Hm.,44.302836,25.592477
10287,Videle,44.284168,25.537262
10328,Ciolpani Hm.,44.243742,25.460094
10342,Gălăteni Hm.,44.210692,25.370882
10366,Olteni,44.190467,25.292291
10380,Vârtoapele hc.,44.174082,25.233376
10407,Rădoieşti Hm.,44.153601,25.160069
10421,Atârnaţi Hm.,44.136248,25.062737
10445,Roşiori Nord,44.123808,24.979367
10469,Măldăeni Hm.,44.113563,24.884261
10483,Mihăeşti Hm.,44.119485,24.772365
10500,Radomireşti Hm.,44.111159,24.670484
10524,Dăneasa h.,44.133447,24.575303
10536,Drăgăneşti Olt,44.154629,24.544698
10548,Stoeneşti h.,44.120702,24.494466
10550,Fărcaşele Hm.,44.121825,24.451892
10574,Caracal,44.119414,24.364977
10598,Cezieni h.,44.152877,24.314674
10615,Grozăveşti Hm.,44.147976,24.235713
10639,Radomiru hc.,44.156314,24.161911
10641,Jianca,44.164112,24.131568
10653,Ţărţăl h.,44.179236,24.092361
10677,Leu Hm.,44.200405,24.037348
10706,Pasaju Coşoveni hc.,44.242628,23.930194
10718,Malu Mare Hm.,44.255064,23.897395
10720,Viaductu Cârcea h.,44.266652,23.88966
10732,Banu Mărăcine Hm.,44.297116,23.859866
10744,Bordei hc.(900),44.322094,23.833762
10770,Craiova,44.327085,23.822089
10782,Craiova Triaj hc.,44.339486,23.789783
10809,Cernele,44.355419,23.756171
10811,Işalniţa hc.,44.392326,23.722905
10823,Işalniţa,44.405153,23.715918
10835,Almăj h.,44.437572,23.696317
10847,Coţofeni Hm.,44.461611,23.667021
10859,Km. 9+820 h.,44.644086,23.415503
10861,Brădeşti h.,44.490656,23.617791
10873,Răcari Hm.,44.515382,23.573863
10885,Termo Turceni h.,44.663928,23.399379
10897,Canton 282 h.,44.532546,23.544951
10902,Filiaşi,44.552384,23.51084
10914,Samarineşti h.,44.740402,23.039968
10926,Gura Motrului Hm.,44.573795,23.432797
10938,Turceni,44.677366,23.388067
10940,Butoieşti Hm.,44.586752,23.355388
10952,Ioneşti Gorj h.,44.619351,23.438223
10964,Lunca Banului h.,44.602493,23.27631
10976,Strehaia,44.61088,23.220541
10988,Strehaia hc.,44.615937,23.193807
10990,Strehaia Nord h.,44.631041,23.196119
11009,Ciochiuţa Hm.,44.603433,23.125849
11023,Tâmna,44.591281,23.038472
11047,Igiroasa Hm.,44.589267,22.974967
11059,Prunişor Hm.,44.606259,22.922368
11073,Gârniţa Hm.,44.613797,22.84956
11085,Balota,44.617524,22.803798
11097,Valea Albă Hm.,44.60163,22.794237
11102,Ergheviţa h.,44.617891,22.776146
11126,Drobeta Tr.Sev Est Hm.,44.622787,22.679105
11138,Drobeta Tr. Severin Mf.,44.608409,22.732144
11140,Drobeta Tr. Severin,44.622078,22.643628
11152,Dinamica h.,44.622931,22.615699
11176,Gura Văii Hm.,44.659871,22.560349
11188,Jidoştiţa h.,44.676999,22.531663
11205,Vârciorova Hm.,44.707595,22.490748
11217,Iloviţa h.,44.722289,22.461481
11229,Şantier Naval h.,44.722875,22.42259
11231,Orşova,44.730936,22.416848
11267,Valea Cernei Hm.,44.766953,22.390962
11281,Topleţ Hm.,44.806733,22.385065
11308,Băile Herculane,44.862628,22.3878
11310,Mehadia Nouă Hm.,44.879248,22.383989
11322,Mehadia Hm.,44.897724,22.368615
11346,Iablaniţa,44.941327,22.327729
11360,Cruşovăţ,44.995917,22.32843
11372,Cornea h.,45.03413,22.320339
11384,Domaşnea Cornea Hm.,45.059982,22.308452
11396,Luncaviţa h.,45.086276,22.289504
11401,Poarta Hm.,45.111418,22.296187
11425,Teregova Hm.,45.15489,22.305249
11449,Armeniş,45.196759,22.308975
11463,Slatina Timiş,45.249928,22.303338
11487,Vălişoara Hm.,45.305286,22.282301
11499,Petroşniţa h.,45.334342,22.26939
11504,Valea Timişului Hm.,45.354361,22.253993
11516,Balta Sărată,45.383426,22.234169
11528,Caransebeş haltă h.,45.418254,22.213439
11554,Caransebeş,45.424444,22.221366
11580,Tibiscu h.,45.456312,22.183682
11592,Zăgujeni Hm.,45.480654,22.167721
11619,Căvăran,45.548241,22.139136
11621,Sacu h.,45.573559,22.111106
11645,Jena Hm.,45.5905,22.081382
11657,Găvojdia,45.622233,22.024664
11671,Tapia Hm.,45.650299,21.967205
11695,Lugoj,45.679667,21.897402
11700,Lugoj Nord h.,45.710401,21.886418
11724,Jabăr Hm.,45.726631,21.826653
11748,Belinţ Hm.,45.744394,21.762648
11750,Chizătău Hm.,45.750196,21.711526
11774,Topolovăţ,45.768445,21.629222
11786,Şuştra h.,45.776405,21.582112
11803,Recaş,45.793682,21.489655
11815,Izvin h.,45.794254,21.462718
11839,Remetea Mare,45.786347,21.363696
11841,Ghiroda h.,45.778553,21.307261
11877,Timişoara Est,45.769244,21.249965
11906,Timişoara Nord,45.75023,21.203318
11956,Săcălaz h.,45.767727,21.105164
11970,Beregsău hcv.,45.77423,21.009985
11994,Cărpiniş,45.783666,20.907872
12015,Clarii Vii h.,45.792741,20.798926
12039,Jimbolia,45.800275,20.718025
12326,Sabareni,44.531652,25.934742
12340,Ciocanesti Hm.,44.580617,25.851227
12364,Bâldana h.,44.620758,25.782701
12388,Ghergani Hm.,44.642644,25.718051
12405,Conţeşti h.,44.656918,25.652862
12417,Boteni h.,44.660208,25.626582
12431,Titu,44.661992,25.570119
12443,Dâmbovicioara h.,44.678735,25.560066
12455,Fusea Hm.,44.673939,25.503086
12479,Mătăsaru Hm.,44.686765,25.442567
12493,Cojocaru h.,44.699977,25.378225
12508,Găeşti Sud h.,44.705164,25.352351
12510,Găeşti,44.713934,25.30424
12534,Pătroaia Hm.,44.743995,25.208929
12558,Leordeni Argeş,44.783872,25.124267
12572,Călineşti Hm.,44.810419,25.062185
12596,Goleşti,44.836899,24.965336
12613,Piteşti,44.846427,24.889944
12637,Bradu de Sus,44.814085,24.915344
12687,Pârvu Hm.,44.77131,24.905704
12699,Pârvu h.,44.733899,24.896826
12704,Suseni h.,44.704321,24.892387
12728,Costeşti,44.668577,24.877597
12742,Fâlfani Hm.,44.609377,24.823952
12766,Stolnici Hm.,44.5493,24.781256
12778,Hârseşti Hm.,44.517165,24.756195
12792,Corbu,44.495832,24.709171
12819,Sineşti Hm.,44.465861,24.672737
12833,Potcoava,44.471318,24.603453
12857,Bâlteni Olt Hm.,44.454521,24.521619
12871,Recea Hm.,44.438032,24.457729
12895,Slatina,44.423721,24.387235
12912,Milcov Hm.,44.387378,24.388536
12924,Slătioara Hm.,44.382423,24.333734
12936,Criva h.,44.372762,24.298988
12948,Piatra Olt,44.368172,24.254954
12974,Brăneţ h.,44.33385,24.20657
12986,Canton 217 h.,44.335444,24.141167
12998,Balş,44.3401,24.116054
13007,Spineni h.,44.353859,24.075404
13021,Robăneşti Hm.,44.344301,24.008748
13033,Toporaş h.,44.336636,23.967096
13045,Pieleşti Hm.,44.319288,23.955884
13069,Cârcea h.,44.284383,23.893443
13071,Plaiu Vulcăneşti Hm.,44.310815,23.854646
13112,Podu Rizii h.,44.713038,25.557485
13124,Băneşti h.,44.742467,25.568999
13136,Movila Dâmboviţa h.,44.768525,25.56116
13148,Nucet,44.788074,25.553579
13150,Cazaci h.,44.818125,25.53102
13162,Săteni h.,44.971551,25.428266
13174,Văcăreşti h.,44.856066,25.500081
13186,Valea Voievozilor hc.,44.938103,25.492987
13198,Târgovişte,44.916122,25.455451
13203,Romlux h.,44.928807,25.436307
13215,TEIŞ Hm.,44.940666,25.443748
13227,Aninoasa Hm.,44.958915,25.442191
13239,Doiceşti,44.987265,25.411314
13241,Doiceşti h.,44.998216,25.401563
13253,Vulcana Pandele Hm.,45.016379,25.408961
13265,Scârlenţa h.,45.034395,25.42653
13277,Trainica h.,45.04789,25.437258
13289,Pucioasa Hm.,45.075632,25.431273
13291,Moţăieni h.,45.092204,25.423457
13306,Fieni,45.125604,25.420655
13320,Ţepeş Vodă h.,45.149241,25.447857
13332,Pietroşiţa Hm.,45.183542,25.440288
13368,Ştefăneşti Argeş Hm.,44.863678,24.92013
13382,Ciumeşti,44.92634,24.884989
13423,Stâlpeni Hm.,45.030937,24.968302
13502,Parcul Kreţulescu h.,45.27396,25.050191
13514,Câmpulung,45.259294,25.037397
13576,Piteşti Nord,44.87037,24.861004
13588,C.I.L. h.,44.882367,24.840265
13590,Bascov Hm.,44.895703,24.821146
13617,Merişani h.,44.965489,24.750365
13643,Băiculeşti h.,45.055011,24.695286
13667,Curtea de Argeş,45.137936,24.672983
14037,Giurgiu Nord,43.92206,25.964847
14049,Giurgiu,43.89533,25.960798
14178,Răduleşti Hm.,44.226245,25.541333
14192,Târnavele Hm.,44.158567,25.546967
14219,Vlaşca Hm.,44.096169,25.585243
14221,Răsuceni h.,44.06451,25.628148
14233,Toporu,44.033509,25.655994
14257,Cetatea h.,43.939174,25.954717
14269,Chiriacu Hm.,43.981844,25.762688
14283,Stăneşti Hm.,43.949847,25.841185
14295,Onceşti h.,43.94357,25.895176
14300,Bălanoaia Hm.,43.947999,25.930533
14312,Roşiori Hm.,44.109581,25.005814
14348,Troian h.,44.009675,24.947099
14362,Salcia Teleorman Hm.,43.933434,24.93225
14398,Km. 231+600 h.,43.837908,24.852915
14427,Turnu Măgurele,43.753898,24.877036
14465,Peret hc.,44.047563,25.094484
14477,Plosca Hm.,44.030413,25.142767
14491,Buzescu h.,44.009644,25.223978
14506,Alexandria Nord h.,43.974777,25.309058
14518,Alexandria,43.963912,25.325808
14544,Ţigăneşti h.,43.890998,25.37778
14556,Brânceni h.,43.876544,25.394047
14568,Smârdioasa h.,43.848246,25.429371
14570,Păuleasa h.,43.81291,25.437775
14623,Zimnicea,43.663514,25.362847
14685,Şopârliţa hc.,44.272104,24.299891
14697,Vlăduleni,44.254874,24.324166
14702,Fălcoiu h.,44.226635,24.345821
14726,Romula Hm.,44.17749,24.401109
14738,Canton 239+700 h.,44.107578,24.371064
14740,Deveselu h.,44.058084,24.394609
14752,Grupa Tehnică Caracal Hm.,44.086439,24.380918
14764,Frăsinet hc.,44.002457,24.421729
14776,Studiniţa h.,43.975433,24.432552
14788,Studina hc.,43.939356,24.424121
14805,Vişina h.,43.886436,24.43574
14817,Vişina Veche hc.,43.865289,24.441516
14855,Corabia,43.771783,24.503765
14879,Jiu Hm.,44.305814,23.84629
14922,Podari,44.243553,23.783944
14946,Sălcuţa Hm.,44.166442,23.709772
14958,Dealul Robului h.,44.128479,23.694981
14960,Segarcea,44.08133,23.724177
14972,Segarcea Nord hc.,44.090307,23.730062
14984,Portăreşti Hm.,44.038301,23.646517
14996,Cerăt h.,44.060915,23.687917
15005,Urzica Mare h.,44.030507,23.606043
15017,Afumaţi h.,44.031735,23.524703
15029,Siliştea Crucii h.,44.031925,23.468299
15031,Boureni P.M.,44.032315,23.437862
15055,Băileşti,44.03343,23.349692
15093,Moţăţei Hm.,44.03488,23.189784
15110,Maglavit h.,44.009975,23.121841
15134,Golenţi Hm.,43.9806,23.051823
15146,Cobuz h.,43.978746,22.957192
15172,Calafat,43.99122,22.924266
15366,Cernaia h.,44.667465,23.129047
15378,Comanda h.,44.653197,23.165677
15380,Jirov Hm.,44.677967,23.099765
15392,Ceramica h.,44.688966,23.077976
15407,Corcova h.,44.724723,23.050933
15419,Motru Est,44.782337,22.994741
15445,Motru Est Gr. Călători,44.794514,22.975934
15574,Valea Păltinişului h.,45.449223,22.15352
15598,Cornuţel Banat Hm.,45.429853,22.09429
15615,Valeadeni h.,45.421105,22.034107
15639,Brebu,45.427985,21.977845
15653,Ezeriş h.,45.399909,21.908091
15677,Bănila Câlnic h.,45.358259,21.892521
15706,Boldur h.,45.676731,21.79559
15720,Sinia Hm.,45.684835,21.717245
15732,Căpăt h.,45.690375,21.65794
15756,Buziaş,45.657838,21.580406
15835,Gătaia,45.422623,21.428327
15914,Timişoara Sud,45.715357,21.203387
15938,Timişoara C.E.T.,45.698556,21.200184
15940,Timişeni Hm.,45.652392,21.1804
15964,Pădureni Timiş  P.M.,45.593179,21.193093
15988,Jebel,45.556599,21.197882
16009,Voiteni,45.475474,21.223247
16023,Birda hcv.,45.442431,21.328859
16047,Măureni hc.,45.422482,21.511256
16061,Gherteniş hc.,45.421008,21.587818
16073,Berzovia,45.4179,21.633303
16114,Bocşa Română hc.,45.376757,21.70992
16126,Vasiova,45.380528,21.759974
16140,Bocşa Montană hc.,45.381603,21.780673
16152,Colţan h.,45.367699,21.801928
16164,Moniom h.,45.352827,21.830238
16176,Câlnic h.,45.334385,21.858297
16205,Reşiţa Nord,45.322583,21.872035
16281,Reşiţa Sud Hm.,45.29148,21.888527
16308,Giroc h.,45.710667,21.21125
16310,Semenic Hm.,45.706276,21.235517
16334,Urseni h.,45.69626,21.308574
16358,Uliuc h.,45.680327,21.366674
16372,Sacoşu Mic,45.664848,21.426675
16396,Chevereş h.,45.655043,21.494143
16401,Bacova h.,45.658838,21.55175
16607,Deta Hm.,45.396604,21.230669
16621,Denta h.,45.345605,21.23543
16645,Stamora Moraviţa,45.273218,21.255645
16841,Oraviţa,45.036689,21.687759
16968,Brădişoru de Jos h.,45.074283,21.712291
16970,Lişava Hm.,45.105127,21.780813
16982,Ciudanoviţa Pam.,45.12822,21.787746
17003,Gârlişte Hm.,45.145462,21.825128
17015,Anina,45.088934,21.852716
17053,Timişoara Vest Hm.,45.724434,21.16897
17091,Utvin h.,45.705145,21.127147
17106,Sânmihai h.,45.690158,21.105944
17120,Parţa h.,45.645141,21.130221
17144,Peciu Nou h.,45.597962,21.05233
17168,Cebza h.,45.565738,21.001738
17170,Giulvăz h,45.54878,20.995307
17194,Rudna hc.,45.503435,21.003688
17211,Cruceni hcv.,45.470993,20.872111
17417,Bucureşti Nord Gr.B,44.449479,26.069264
17479,Bucureşti Triaj hc.,44.476455,26.028153
17663,P. mac. R1 Buciumeni,44.519159,25.968708
17728,P. M. Ram. Ploieşti Tj.,44.903397,26.013797
18007,Gârbovu h.,44.732811,23.357442
18019,Sărdăneşti h.,44.761986,23.363883
18033,Plopşoru,44.801335,23.33415
18069,Peşteana Jiu h.,44.835861,23.300824
18071,Bâlteni h.,44.859339,23.273346
18095,Vlăduleni Gorj h.,44.885465,23.233234
18100,Roşia Jiu h.,44.895467,23.198037
18112,Rovinari Sud h.,44.89873,23.170833
18667,Canton 97+770 h.,44.827958,25.0027
20012,Bartolomeu,45.662858,25.574548
20036,Ghimbav Hm.,45.669532,25.509823
20050,Codlea Hm.,45.693829,25.457175
20074,Dumbrăviţa Bârsei Hm.,45.76238,25.433396
20086,Vlădeni Ardeal,45.76368,25.37381
20103,Valea Homorod h.,45.751852,25.31209
20127,Brădet Hm.,45.753949,25.250022
20141,Perşani h.,45.787187,25.197638
20165,Şercaia Hm.,45.816084,25.149619
20177,Şercaia h.,45.825282,25.142384
20206,Mândra Oltului h.,45.824685,25.048585
20232,Făgăraş,45.830246,24.975586
20244,Beclean pe Olt h.,45.835802,24.923661
20268,Dridif h.,45.825357,24.875715
20270,Voila Hm.,45.819355,24.833422
20294,Olteţ h.,45.805163,24.7581
20309,Viştea h.,45.798133,24.714709
20311,Ucea,45.792654,24.678021
20359,Arpaş Hm.,45.784827,24.612145
20361,Cârţa h.,45.783349,24.573825
20373,Scoreiu h.,45.77156,24.530359
20385,Sărata Colun h.,45.763135,24.502348
20397,Porumbacu Hm.,45.766632,24.456206
20414,Avrig Hm.,45.732272,24.373782
20440,Mârşa h.,45.701653,24.360317
20464,Racoviţa h.,45.688238,24.340298
20476,Sebeş Olt h.,45.668268,24.315836
20490,Podu Olt,45.662241,24.298634
20517,Tălmaciu Hm.,45.670073,24.266124
20531,Veştem h.,45.722271,24.227122
20543,Mohu h.,45.740579,24.212686
20567,Sibiu Gr.Şelimbăr Hm.,45.769199,24.199921
20622,Sibiu Triaj,45.78376,24.183441
20634,Atelier Zona h.,45.789376,24.176387
20646,Sibiu Triaj h.,45.780117,24.187539
20658,Sibiu,45.799765,24.162294
20713,Sibiu h.(210),45.811154,24.148314
20749,Turnişor Hm.,45.801161,24.130273
20775,Cristian Sibiu h.,45.776813,24.024384
20787,Orlat,45.761396,23.972039
20799,Sibiel h.,45.765521,23.940909
20804,Săcelu Sibiului h.,45.787623,23.942754
20816,Sălişte Hm.,45.807246,23.900289
20830,Aciliu h.,45.817281,23.876319
20842,Tilişca h.,45.824746,23.846935
20866,Apoldu de Sus Hm.,45.851256,23.803784
20880,Apoldu de Jos h.,45.878,23.833128
20892,Miercurea Sibiu Hm.,45.891367,23.800331
20919,Băile Miercurea h.,45.908577,23.738774
20933,Cunţa Hm.,45.928053,23.719465
20945,Cut h.,45.924526,23.661476
20957,Rahău h.,45.924409,23.628826
20971,Sebeş Alba,45.957634,23.580031
21004,Sebeş Glod h.,45.972199,23.558026
21028,Vinţu de Jos,45.988515,23.496546
21054,Blandiana Hm.,45.966694,23.441099
21066,Tărtăria h.,45.948171,23.410951
21078,Balomiru de Câmp h.,45.93366,23.367395
21092,Şibot,45.929521,23.331364
21121,Aurel Vlaicu,45.899058,23.271034
21133,Geoagiu h.,45.883496,23.247986
21157,Orăştie,45.861764,23.210474
21183,Pricaz h.,45.855718,23.173739
21200,Turdaş Hm.,45.836423,23.106487
21212,Simeria Veche h.,45.837704,23.054202
21236,Simeria,45.846558,23.014367
21250,Săulesti h.,45.862157,22.967382
21286,Deva,45.884096,22.91133
21315,Mintia,45.920779,22.849984
21327,Mintia h.,45.916589,22.825551
21341,Veţel h.,45.907133,22.802945
21365,Brănişca Hm.,45.919409,22.773368
21389,Bretea Mureşeană h.,45.930686,22.714109
21406,Ilia,45.940508,22.657326
21432,Gurasada Hm.,45.943311,22.586619
21456,Câmpuri Surduc Hm.,45.936954,22.53471
21468,Burjuc h.,45.949164,22.489043
21482,Zam,46.001519,22.440524
21509,Petriş pe Mureş h.,46.014209,22.396607
21511,Ilteu,46.00739,22.355628
21535,Toc h.,46.003237,22.321867
21559,Săvârşin,46.008013,22.232215
21573,Vărădia h.,46.001822,22.157863
21597,Vărădia Hm.,46.016539,22.133334
21602,Valea Mureşului h.,46.030775,22.088255
21614,Bătuţa Hm.,46.056032,22.045357
21626,Căpruţa h.,46.081485,22.023288
21638,Bârzava,46.102254,21.997181
21652,Nadăş h.,46.102635,21.930823
21664,Conop Hm.,46.101028,21.875808
21676,Corfeni h.,46.100419,21.835349
21688,Milova,46.092225,21.79137
21705,Radna,46.0934,21.690188
21731,Păuliş Hm.,46.107109,21.610516
21743,Păuliş h.,46.124616,21.585243
21755,Ghioroc,46.15154,21.583294
21808,Glogovăţ,46.177622,21.4001
21834,Arad,46.191443,21.324782
21901,Şofronea,46.277508,21.314948
21925,Curtici,46.341062,21.297555
22008,Lustic h.,45.638242,25.503291
22010,Cristian Hm.,45.617664,25.479625
22034,Râşnov,45.594751,25.457777
22046,Râşnov h.,45.588944,25.437721
22060,Tohanu Vechi hc.,45.57569,25.376671
22072,G-ral T.Moşoiu hc.,45.568811,25.349627
22096,Zărneşti,45.562638,25.328283
22151,Găneasa h.,44.395033,24.274217
22163,Găneasa Olt h.,44.419493,24.262934
22175,Arceşti Hm.,44.453768,24.257924
22199,Colibaşi h.,44.505465,24.259523
22216,Strejeşti,44.558287,24.259676
22230,Zlătărei Hm.,44.606239,24.259651
22254,Drăgăşani,44.662406,24.257869
22278,Călina h.,44.720505,24.25578
22280,Zăvideni Hm.,44.754216,24.24856
22292,Orleşti hc.,44.79834,24.246591
22307,Fişcălia Hm.,44.81675,24.247322
22319,Bucşani Vâlcea h.,44.842299,24.238928
22321,Ioneşti Hm.,44.874323,24.231211
22345,Slăviteşti hc.,44.930465,24.232457
22357,Băbeni,44.959893,24.23883
22369,Tătărani h.,44.983566,24.245971
22371,Govora,45.022179,24.281056
22395,Râureni hc.,45.039155,24.301558
22400,Râureni,45.061136,24.330318
22412,Răstoaca h.,45.071517,24.344748
22424,Ostroveni h.,45.094936,24.365702
22436,Râmnicu Vâlcea,45.102963,24.37257
22448,Râmnicu Vâlcea Nord h.,45.120084,24.372495
22450,Bujoreni Vâlcea Hm.,45.151786,24.376556
22486,Dăeşti Hm.,45.186735,24.383548
22498,Cozia Hm.,45.320869,24.285901
22503,Călimăneşti,45.235798,24.355131
22515,Păuşa h.,45.250571,24.340221
22539,Mânăstirea Turnu h.,45.290326,24.300041
22565,Lotru,45.348002,24.274923
22589,Beţel h.,45.376184,24.296997
22591,Cornet Hm.,45.401803,24.300893
22606,Balota h.,45.434252,24.297129
22618,Robeşti h.,45.453849,24.294954
22632,Câineni,45.491471,24.302863
22656,Râu Vadului h.,45.525409,24.272572
22668,Valea Fratelui h.,45.547844,24.269579
22670,Valea Mărului Hm.,45.602155,24.265051
22694,Turnu Roşu hc.,45.643189,24.295678
22929,Coşlariu,46.172695,23.676714
22967,Sântimbru h.,46.13623,23.652072
22981,Sântimbru  Hm.,46.12648,23.632053
22993,Bărăbanţ Nord h.,46.110188,23.577206
23002,Bărăbanţ Hm.,46.090682,23.598778
23014,Antestaţie Bărăbanţ h.,46.101656,23.607173
23038,Alba Iulia,46.056159,23.576137
23088,Vinerea h.,45.889006,23.347645
23105,Cugir hc.,45.839776,23.370893
23129,Cugir  Hm.,45.831067,23.374224
23155,Bungeţel h.,44.563219,23.49998
23167,Ţânţăreni Hm.,44.597763,23.504881
23179,Floreşti hc.,44.624094,23.514179
23193,Gilort Hm.,44.657065,23.523907
23210,Turburea Hm.,44.714661,23.511622
23234,Bibeşti Hm.,44.778828,23.500882
23258,Musculeşti,44.818465,23.511643
23272,Bărbăteşti Hm.,44.872028,23.511616
23296,Jupâneşti Hm.,44.910186,23.519501
23313,Cărbuneşti,44.955774,23.508494
23349,Pojogeni Hm.,44.992241,23.485691
23351,Scoarţa h.,45.011362,23.455633
23363,Copăcioasa Hm.,45.024285,23.431757
23387,Budieni h.,45.021014,23.398711
23399,Lunca Budieni Hm.,45.02015,23.359724
23428,Târgu Jiu,45.031861,23.280928
23430,Ramificaţia C.A.M. h.,45.041011,23.283597
23454,Ecaterina Teodoroiu,45.066487,23.301753
23466,Ezureni h.,45.088601,23.32465
23478,Parângu Hm.,45.11047,23.343402
23492,Bumbeşti Hm.,45.155974,23.37735
23507,Valea Sadului Hm.,45.183016,23.384887
23521,Meri,45.220114,23.382075
23533,Lainici Hm.,45.269924,23.384663
23557,Pietrele Albe Hm.,45.306602,23.384393
23569,Strâmbuţa Hm.,45.35568,23.382351
23583,Livezeni,45.376828,23.36762
23612,Lunca Jiului hc.,45.401751,23.373261
23624,Petroşani,45.423414,23.366258
23636,Petroşani Triaj h.,45.442872,23.358086
23715,Peştera Bolii h.,45.448367,23.32138
23739,Băniţa,45.447829,23.263394
23753,Merişor Hm.,45.455716,23.231472
23765,Crivadia Hm.,45.46347,23.197384
23777,Baru Mare h.,45.466026,23.166398
23789,Baru Mare,45.475253,23.144297
23806,Livadia h.,45.495396,23.127737
23818,Ponor h.,45.505834,23.118813
23832,Pui,45.519759,23.082791
23844,Ruşor h.,45.53128,23.027496
23856,Băeşti Hm.,45.541023,23.008056
23868,Ohaba de sub Piatră h.,45.548697,22.989426
23870,Ciopea h.,45.562784,22.976274
23894,Subcetate,45.594903,22.992219
23923,Covragiu h.,45.61956,23.001285
23935,Plopi h.,45.635336,22.99734
23947,Bretea Streiului Hm.,45.653103,22.995767
23961,Măceu h.,45.675991,22.992123
23973,Ruşi h.,45.698359,22.989098
23997,Călan Hm.,45.730036,22.989797
24020,Călan Băi,45.759578,22.999587
24032,Batiz h.,45.775678,22.998457
24044,Băcia Hm.,45.792599,22.99996
24056,Băcia h.,45.804856,23.001386
24082,Simeria Triaj Gr D,45.828802,23.01245
24563,Vârţ h.,44.943966,23.136768
24575,Amaradia,44.983806,23.245153
24587,Drăguţeşti h.,44.967248,23.221402
24599,Cârbeşti Hm.,44.948968,23.191149
24604,Rogojelu,44.925711,23.13529
24616,Rovinari Hm.,44.902082,23.157719
24628,Km. 49+800 h.,44.905057,23.147773
24707,Bârcea Mare h.,45.841149,22.965341
24721,Bârcea Mică,45.831085,22.949704
24745,Pestişu Mare h.,45.801938,22.932115
24783,Hunedoara,45.763904,22.901798
24862,Dobra Hm.,45.918086,22.569503
24886,Lăpugiu h.,45.905112,22.499735
24898,Coşteiu h.,45.89739,22.369457
24903,Ohaba hc.,45.886779,22.446229
24915,Holdea Hm.,45.894701,22.393306
24939,Nemeşeşti h.,45.884134,22.320654
24941,Margina,45.8565,22.265375
24977,Făget,45.848703,22.169004
24991,Răchita h.,45.829468,22.109535
25012,Mănăştur Hm.,45.827921,22.06761
25024,Traian Vuia h.,45.812599,22.024529
25036,Susani Bega h.,45.80861,21.999421
25048,Cliciova,45.81201,21.957192
25050,Nevrincea h.,45.804018,21.90278
25062,Balinţ h.,45.796398,21.864128
25074,Păru h.,45.765188,21.86098
25086,Coşteiu Mare Hm.,45.749625,21.858499
25103,Viile Giarmata h.,45.800588,21.292877
25115,Giarmata Hm.,45.83353,21.307431
25127,Cerneteaz h.,45.838319,21.2852
25141,Pişchia h.,45.894765,21.343677
25153,Bencei h.,45.926828,21.383205
25165,Fibiş h.,45.954318,21.419508
25177,Remetea Mică,45.97117,21.468238
25189,Şarlota h.,45.980421,21.498774
25191,Aliuş hcv.,46.041406,21.499511
25206,Zăbrani Hm.,46.077684,21.556792
25218,Gomila h.,46.008616,21.518676
25220,Neudorf h.,46.075006,21.619079
25256,Ronaţ Triaj h.,45.785108,21.17029
25282,Ronaţ Triaj Gr. D,45.794706,21.167053
25309,Sânandrei Hm.,45.848895,21.149368
25323,Băile Călacea,45.912374,21.171198
25347,Orţişoara,45.963561,21.190729
25361,Vinga Hm.,46.016625,21.199387
25385,Şag Hm.,46.058754,21.270361
25402,Valea Viilor Hm.,46.098669,21.311431
25426,Aradu Nou,46.144146,21.335183
25440,Arad Vest,46.19945,21.280305
25452,Ferma Ciala h.,46.195803,21.237893
25476,Sântoma h.,46.184763,21.182125
25488,Pecica,46.174523,21.086154
25529,Semlac h.,46.116106,20.92599
25543,Şeitin h.,46.117814,20.841901
25567,Nădlac,46.15952,20.767121
25646,Zădăreni Hm.,46.129429,21.221627
25658,Bodrogu Nou h.,46.125509,21.19654
25672,Felnac hc.,46.110577,21.135243
25696,Sânpetru German h.,46.101289,21.050058
25701,Munor h.,46.099594,21.016511
25713,Secusigiu h,46.08413,20.989659
25725,Aranca h.,46.074735,20.969107
25751,Periam,46.036388,20.872699
25787,Sânpetru h.,46.037786,20.814846
25804,Saravale h.,46.051832,20.739749
25828,Dudeştii Vechi  h,46.03071,20.475349
25830,Vălcani hcv.,45.991847,20.405034
25866,Hodoni h.,45.901949,21.082173
25878,Chinezu h.,45.946132,21.051213
25880,Bărăteaz h.,45.980165,21.068799
25892,Gelu hc.,46.002316,21.04428
25919,Variaş hc.,46.015912,20.966252
25933,Pesac h.,45.998686,20.828187
25957,Gotlob h.,45.934946,20.69873
25971,Comloşu Mare h.,45.9005,20.624927
25995,Teremia Banat hc.,45.929099,20.529089
26004,Nerău hcv.,45.962106,20.550696
26042,Dudeştii Noi Hm.,45.825415,21.110793
26066,Pescăreţu Mic hc.,45.827216,21.051068
26080,Biled,45.88336,20.94932
26107,Şandra h.,45.919245,20.896888
26121,Satu Nou Hm.,45.962644,20.819288
26145,Lovrin,45.965441,20.755514
26171,Tomnaticu h.,45.99204,20.671949
26195,Sânnicolau Mare,46.054234,20.64158
26212,Sânnicolau Nord h.,46.081861,20.623368
26236,Cenad h.,46.134992,20.595336
27034,Şard Ighiu h.,46.122379,23.521603
27046,Tăutu Ampoiului h.,46.096692,23.468086
27058,Văleni Meteş h.,46.092061,23.420703
27060,Poiana Ampoiului h.,46.0889,23.393411
27072,Prisaca h.,46.09953,23.330059
27084,Feneş h.,46.092818,23.300898
27096,Zlatna Tehnică,46.089348,23.262225
27101,Zlatna hcv.,46.108413,23.22955
27113,Zlatna h.,46.104691,23.239153
27137,Ampoiţa h.,46.111389,23.491851
27175,Glogoveţ h.,46.131084,24.013019
27735,Km. 107+000 h.,44.841862,24.898011
27747,Km. 109+000 h.,44.839611,24.897066
27759,Km. 200+400 P.aj.m,44.057013,24.976096
27917,Ram. Goleşti,44.828074,24.93399
27955,R. 1 Jiu,44.302322,23.8428
28014,Km. 105+600 h.,45.284474,23.389485
30081,P.O. Aeroport h.,44.584855,26.072553
30108,Depoul Buc.Triaj h. (IIIK),44.475469,26.02998
30110,Chitila,44.502041,25.984516
30146,Buftea,44.564175,25.957236
30158,Dârza h.,44.599892,25.957138
30172,Periş,44.678193,25.996638
30184,Scroviştea h.,44.72163,26.023599
30196,Crivina,44.760166,26.025904
30201,Prahova h.,44.80352,26.02797
30225,Brazi,44.862552,26.026031
30304,Ploieşti Vest,44.924547,25.994612
30378,Buda,44.963488,25.926047
30392,Floreşti Prahova,45.030178,25.809831
30407,Bobolia h.,45.092415,25.746731
30421,Câmpina,45.132612,25.711404
30457,Breaza hc.,45.173523,25.68554
30469,Nistoreşti h.,45.19493,25.672586
30471,Breaza Nord h.,45.215871,25.64817
30483,Comarnic,45.242355,25.63274
30495,Posada h.,45.281266,25.617253
30500,Valea Largă Hm.,45.30936,25.567957
30512,Sinaia Sud h.,45.333755,25.559526
30524,Sinaia,45.352481,25.55278
30536,Poiana Ţapului hc.,45.390713,25.541353
30548,Buşteni,45.415858,25.537607
30550,Azuga,45.445017,25.552589
30615,Predeal,45.505624,25.575646
30641,Timişu de Sus Hm.,45.5475,25.587872
30653,Timişu de Jos h.,45.585381,25.623041
30665,Dârste,45.619076,25.653796
30691,Braşov,45.661677,25.613558
30756,Braşov Triaj,45.674246,25.64694
30835,Stupini Hm.,45.699716,25.595301
30859,Bod Hm.,45.759193,25.603841
30885,Feldioara Hm.,45.825358,25.586369
30897,Rotbav h.,45.841379,25.563313
30902,Vadu Roşu h.,45.873818,25.544585
30914,Măieruş h.,45.898991,25.54626
30938,Apaţa,45.952637,25.536259
30952,Ormeniş h.,46.001545,25.557418
30988,Augustin Hm.,46.047972,25.545931
31011,Racoş Hm.,46.021589,25.42232
31023,Mateiaş h.,46.028385,25.383408
31047,Rupea,46.017881,25.278581
31073,Caţa Hm.,46.092239,25.271194
31097,Paloş Ardeal h.,46.122099,25.220017
31102,Beia Hm.,46.153828,25.184612
31126,Archita h,46.182786,25.096238
31140,Mureni Hm.,46.226019,24.996208
31164,Vânători,46.243574,24.919052
31190,Albeşti Târnava Hm.,46.237663,24.855996
31217,Sighişoara,46.226584,24.795775
31243,Daneş Hm.,46.225436,24.702883
31255,Luna h.,46.220385,24.628056
31279,Dumbrăveni,46.21592,24.561404
31293,Aţel Hm.,46.197455,24.475854
31308,Bratei h.,46.175113,24.421907
31334,Mediaş,46.160462,24.351314
31372,Târnava h.,46.133861,24.299242
31401,Copşa Mică,46.114624,24.229754
31437,Micăsasa Hm.,46.090039,24.111868
31449,Lunca h.,46.091529,24.066199
31451,Valea Lungă,46.118396,24.036306
31463,Mănărade h.,46.142363,23.984634
31504,Câmpu Libertăţii Hm.,46.172504,23.940233
31530,Blaj,46.176291,23.909433
31566,Crăciunel Hm.,46.172716,23.844036
31580,Cistei h.,46.182046,23.755482
31592,Mihalţ h.,46.175067,23.709522
31619,Coşlariu Gr. P. Mureş,46.175461,23.691895
31645,Teiuş,46.203605,23.691358
31695,Aiud Hm.,46.31254,23.73535
31712,Mirăslău h.,46.361268,23.720778
31724,Decea h.,46.378257,23.766787
31748,Unirea Hm.,46.391106,23.804838
31750,Unirea hc.,46.399674,23.839146
31774,Războieni,46.414713,23.885692
31786,Grindeni h.,46.436567,23.89652
31798,Călăraşi Turda Hm.,46.487043,23.885655
31827,Câmpia Turzii,46.547004,23.879582
31853,Cânepişti h.,46.607565,23.847135
31865,Ploscoş h.,46.636732,23.851051
31877,Valea Florilor Hm.,46.664839,23.860772
31891,Boju,46.702003,23.836687
31918,Tunel Hm.,46.732257,23.813951
31920,Cojocna Hm.,46.766822,23.79015
31944,Apahida,46.791719,23.743049
31968,Dezmir h.,46.780587,23.69887
31982,Cluj Napoca Est,46.778838,23.670483
32015,Cluj Napoca,46.784618,23.586925
32053,Baciu Triaj Hm.,46.787382,23.528086
32091,Rădaia h.,46.804696,23.454062
32106,Suceag h.,46.800061,23.478304
32118,Mera Hm.,46.806915,23.445782
32120,Nădăşel h.,46.815795,23.425776
32144,Gârbău Hm.,46.830644,23.359502
32156,Macău h.,46.847215,23.314371
32168,Dorolţu h.,46.860411,23.301184
32182,Aghireş,46.866036,23.278835
32194,Gălăşeni h.,46.880464,23.172644
32209,Aghireş h.,46.873446,23.247463
32223,Stana Hm.,46.872954,23.146982
32235,Jebuc h.,46.864493,23.093809
32261,Huedin,46.866961,23.032371
32285,Brăişoru Hm.,46.880395,22.920568
32297,Bologa h.,46.893196,22.880354
32302,Poieni,46.91474,22.861362
32314,Valea Drăganului h.,46.934748,22.844676
32326,Ciucea Hm.,46.954605,22.811515
32338,Negreni h.,46.951797,22.781422
32340,Lacu Crişului h.,46.959554,22.73599
32352,Piatra Craiului Hm.,46.946672,22.702509
32364,Bulz Hm.,46.934238,22.662783
32376,Stâna de Vale h.,46.928087,22.648376
32388,Bratca,46.928839,22.60318
32390,Bălnaca h.,46.934206,22.579216
32405,Şuncuiuş Hm.,46.949056,22.537628
32417,Peştera h.,46.960671,22.513164
32431,Vadu Crişului Hm.,46.994728,22.495839
32455,Vadu Crişului h.,46.977965,22.50845
32479,Butan h.,47.019284,22.44317
32481,Aleşd h.,47.037349,22.390266
32508,Aleşd,47.04,22.356859
32522,Ţeţchea hc.,47.042814,22.318121
32534,Telechiu Hm.,47.046765,22.26746
32558,Tileagd,47.053695,22.210289
32572,Săbolciu h.,47.054899,22.140328
32584,Săcădat h.,47.05088,22.110809
32601,Oşorhei Hm.,47.039567,22.034163
32637,Oradea Est,47.043631,21.963065
32663,Oradea,47.07012,21.936531
32704,Oradea Vest Hm.,47.057405,21.891385
32742,Episcopia Bihor,47.099659,21.877082
32883,Crângu Lui Bot Hm.,44.923672,25.91813
32895,Crângu Lui Tei hc.,44.921544,25.884779
32900,Târgşoru Nou Hm.,44.91911,25.857316
32912,Brătăşanca h.,44.913397,25.821867
32924,P. mac. Zalhanaua,44.90796,25.786517
32948,I. L. Caragiale,44.908048,25.723473
32950,I. L. Caragiale Vest h.,44.910086,25.68379
32974,Mija,44.912525,25.658723
32998,Adânca PM.,44.921307,25.596419
33019,Răzvad hc.,44.93024,25.521873
33033,Târgovişte Nord,44.947749,25.462595
33277,Găgeni hc.,45.024515,25.937255
33289,Plopeni,45.049259,25.955336
33291,Plopeni Sat Hm.,45.060663,25.968976
33306,Găvănel hc.,45.080937,25.995313
33318,Mălăeşti h.,45.10119,26.009227
33320,Coţofeneşti h.,45.129448,26.000397
33332,Poiana Slănic h.,45.15396,25.985552
33344,Vărbilău hc.,45.185532,25.955385
33356,Prăjani h.,45.204723,25.949974
33368,Slănic,45.231791,25.938724
33370,Vlădeşti h.,45.174082,25.975924
33473,Săcuienii Noi h.,46.258069,24.971402
33485,Sântămaria h.,46.280298,25.006353
33502,Cristur Hm.,46.293762,25.03886
33514,Beteşti Est h.,46.289901,25.093739
33526,Beteşti h.,46.294864,25.068523
33538,Porumbenii Mici h.,46.277021,25.103319
33540,Porumbenii Mari h.,46.268678,25.139142
33552,Lutiţa h.,46.25575,25.187276
33564,Dobeni h.,46.256695,25.207436
33576,Feliceni h.,46.266794,25.260064
33590,Odorhei Sud hc.,46.307602,25.289965
33605,Odorhei,46.310296,25.302406
33710,Ocna Sibiului Hm.,45.857086,24.067551
33746,Băile Ocna Sibiului h.,45.875385,24.070535
33758,Mândra h.,45.924127,24.075887
33760,Loamneş Hm.,45.938931,24.087853
33772,Hăşag h.,45.971386,24.10739
33784,Veşeud h.,45.99062,24.146627
33796,Şeica Mare h.,46.022289,24.157624
33801,Şeica Mare,46.034037,24.163027
33825,Agârbiciu h.,46.068706,24.189874
33837,Axente Sever h.,46.095464,24.21371
33875,Sâncel h.,46.200144,23.935801
33887,Pănade h.,46.218235,23.966579
33899,Şona h.,46.222238,24.010222
33904,Sfântu Nicolae h.,46.232541,24.046191
33916,Bălcaci h.,46.23172,24.072295
33928,Jidvei  hcv.,46.230153,24.108343
33930,Cetatea de Baltă h.,46.245323,24.164259
33942,Corneşti Târnava h.,46.300725,24.212054
33954,Adămuş h.,46.314484,24.237388
33966,Crăieşti h.,46.291303,24.202868
33978,Târnaveni Vest Hm.,46.324221,24.269102
34001,Târnaveni,46.328438,24.298922
34037,Găneşti h.,46.343962,24.365601
34049,Deaj h.,46.352157,24.39511
34051,Mica h.,46.360161,24.420288
34063,Bernadea h.,46.373926,24.449121
34075,Bahnea h.,46.383027,24.488713
34087,Laslău h.,46.392362,24.542843
34099,Şoimuş h.,46.396848,24.591863
34104,Coroiu h.,46.402111,24.612466
34128,Bălăuşeri hcv.,46.407224,24.700144
34130,Fântânele h.,46.417115,24.76254
34154,Sângeorgiu de Pădure h.,46.424163,24.842053
34178,Cioc h.,46.471918,24.900286
34180,Ghindari h.,46.500877,24.92937
34192,Chibed h.,46.531765,24.962458
34207,Sărăţeni h.,46.556776,25.005746
34219,Sovata  hcv.,46.578585,25.048457
34233,Praid,46.551409,25.115549
34257,Feisa h.,46.231824,24.137323
34477,Oradea Est Triaj h.,47.034256,21.972084
34609,Holod,46.78154,22.129906
34611,Holod Vest Hm.,46.775806,22.105068
34623,Ginta h.,46.752549,22.116586
34635,Căpâlna hc.,46.730405,22.115757
34647,Suplacu de Tinca h.,46.707008,22.125319
34659,Şoimi hc.,46.688265,22.121547
34661,Urviş h.,46.678871,22.153861
34673,Borz hc.,46.671331,22.182093
34685,Uilacu Beiuş hc.,46.675584,22.22373
34697,Ioaniş Hm.,46.675389,22.271639
34702,Finiş hc.,46.658809,22.31596
34726,Beiuş,46.661473,22.35987
34740,Tărcaia h.,46.633102,22.385023
34752,Sudrigiu Hm.,46.60468,22.418889
34764,Rieni Bihor hc.,46.576032,22.439428
34776,Ştei Hm.,46.535528,22.453076
34790,Vaşcău,46.482144,22.474152
34972,Dumbrava Bihor h.,46.776637,22.085922
34984,Râpa hc.,46.776827,22.000111
35005,Tinca Hm.,46.782333,21.927322
35031,Tăut h.,46.742894,21.827943
35055,Batăr h.,46.724342,21.76876
35079,Glad h.,46.710563,21.684359
35110,Utvinişu Nou,46.238891,21.35459
35122,Utviniş h.,46.266699,21.363797
35146,Zimandu Nou h.,46.282804,21.396211
35184,Sântana,46.3335,21.495986
35201,Comlăuş h.,46.360355,21.520189
35213,Şimand Hm.,46.423438,21.471559
35249,Nădab,46.486055,21.501621
35263,Chişineu Criş,46.52411,21.531311
35287,Zerind Hm.,46.59357,21.545234
35299,Tămaşda h.,46.656863,21.554154
35316,Boiu Bihor h.,46.692754,21.586094
35330,Ciumeghiu Hm.,46.725249,21.59513
35407,Salonta,46.809452,21.642319
35421,Mădăraş Bihor h.,46.833388,21.664971
35433,Cefa Hm.,46.903889,21.731983
35469,Leş Bihor Hm.,46.980601,21.807991
35536,Şiria Hm.,46.283343,21.63646
35548,Mâsca Măderat h.,46.299256,21.665608
35562,Pâncota h.,46.321779,21.678549
35574,Seleuş h.,46.344221,21.70002
35598,Târnova Zărand Hm.,46.339823,21.791439
35615,Mocrea h.,46.389071,21.810066
35639,Ineu,46.421258,21.82841
35641,Teuz h.,46.512186,21.862453
35665,Tămand h.,46.443943,21.917876
35689,Bocsig  h,46.43892,21.965489
35691,Răpsig h.,46.422546,22.02566
35720,Sebiş,46.36539,22.12603
35744,Paulian h.,46.329009,22.15683
35768,Joia Mare hc.,46.30257,22.180821
35782,Almaş h.,46.296019,22.247879
35809,Bonţeşti h.,46.28001,22.309449
35823,Gurahonţ,46.273954,22.343455
35847,Romaniţa h.,46.291607,22.402839
35859,Aciuţa h.,46.294283,22.433708
35885,Tălagiu h.,46.277489,22.480028
35897,Vârfurile Hm.,46.291613,22.520528
35914,Cariera Leasa h.,46.266602,22.539382
35926,Hălmagiu Hm.,46.254289,22.568491
35938,Ocişor h.,46.222322,22.559772
35940,Ociu h.,46.209691,22.571908
35952,Vaţa h.,46.184094,22.599742
35964,Birtin h.,46.176683,22.638054
35976,Lunca Moţilor h.,46.180287,22.681359
35988,Baia de Criş h.,46.179721,22.711846
36009,Ţebea h,46.171302,22.736589
36114,Ribiţa h.,46.163765,22.763414
36126,Brad,46.13677,22.782697
36322,Cermei hcv,46.541007,21.847545
36504,Dobrei hcv.,45.101547,21.771662
36798,Dep Petroşani h.,45.432461,23.360238
36815,Ronaţ Triaj Cab.1 h.,45.770943,21.175557
36853,Canton Nr. 9 h.,46.169914,20.990558
40024,Hărman,45.69781,25.686208
40036,Ilieni h.,45.726572,25.762695
40050,Prejmer Hm.,45.738918,25.777618
40074,Chichiş h.,45.771441,25.804935
40103,Ozun Hm.,45.799914,25.840072
40139,Sfântu Gheorghe,45.866855,25.811067
40165,Arcuş h.,45.906126,25.825162
40177,Bodoc Hm.,45.944646,25.84329
40191,Malnaş h.,46.001925,25.840984
40206,Malnaş Băi,46.035137,25.825465
40220,Bicsadu Oltului Hm.,46.100152,25.84686
40256,Băile Tuşnad Hm.,46.151249,25.86006
40270,Tuşnad Sat,46.190302,25.893347
40294,Vrabia h.,46.216891,25.88902
40311,Sânsimion Hm.,46.266037,25.885063
40335,Sântimbru Ciuc h.,46.287859,25.874484
40347,Sâncrăieni Hm.,46.310657,25.857277
40373,Miercurea Ciuc,46.359767,25.7942
40402,Siculeni,46.431235,25.774125
40414,Racu h.,46.446562,25.756593
40464,Mădăraş Ciuc Hm.,46.48864,25.742015
40476,Dăneşti h.,46.511015,25.750842
40488,Cârţani h.,46.53259,25.767644
40490,Izvoru Oltului,46.568191,25.796064
40505,Tomeşti h.,46.548194,25.780762
40517,Izvoru Mureşului Hm.,46.626862,25.715969
40529,Sândominic h.,46.601178,25.751924
40531,Voşlăbeni Hm.,46.627138,25.641762
40555,Valea Strâmbă h.,46.689277,25.586125
40567,Şugău h.,46.645396,25.617766
40579,Gheorgheni,46.718807,25.573648
40593,Lăzarea Hm.,46.742289,25.52895
40610,Ditrău,46.797314,25.475901
40634,Subcetate Mureş Hm.,46.862766,25.440376
40646,Sărmaş Runc h.,46.88581,25.439816
40658,Gălăuţaş Hm.,46.911477,25.405862
40684,Topliţa,46.924016,25.342975
40696,Ciobotani h.,46.950535,25.266204
40701,Stânceni Hm.,46.954568,25.240405
40713,Stânceni h.,46.966472,25.19195
40725,Stânceni Neagra h.,46.96651,25.154218
40749,Lunca Bradului Hm.,46.955222,25.103073
40763,Andreneasa h.,46.960113,25.031229
40787,Răstoliţa Hm.,46.971845,24.969027
40799,Borzia h.,46.970471,24.933016
40804,Deda Bistra Hm.,46.96054,24.908192
40830,Deda,46.941425,24.865755
40866,Morăreni h.,46.924922,24.82334
40878,Râpa de Jos Hm.,46.923168,24.781639
40892,Monor Gledin,46.961069,24.703941
40907,Şieuţ h.,46.978639,24.645979
40921,Şieu Hm.,47.004515,24.604803
40933,Bârla pe Şieu h.,47.015002,24.529681
40945,Mărişelu Hm.,47.019005,24.499429
40957,Domneşti pe Şieu h.,47.037426,24.480282
40971,Sărăţel,47.060744,24.403619
40983,Arcalia hc.,47.089564,24.370461
40995,Măgheruş Şieu Hm.,47.101882,24.352833
41016,Sfântu h.,47.131122,24.303535
41028,Caila hc.,47.149196,24.288742
41030,Şintereag Hm.,47.17716,24.270494
41054,Beclean pe Someş,47.177535,24.18259
41078,Coldău Hm.,47.181481,24.119655
41080,Ciceu Cristur h.,47.190758,24.089637
41092,Reteag h.,47.194814,24.063543
41107,Reteag Hm.,47.187869,24.023358
41119,Ciceu Mihăeşti h.,47.17334,23.970493
41145,Dej Triaj,47.156747,23.913041
41195,Dej Călători,47.142602,23.894787
41200,C. C. H. Dej h.,47.14945,23.883753
41224,Căşeiu Hm.,47.188217,23.851645
41236,Coplean h.,47.200029,23.824662
41248,Câţcău h.,47.212661,23.776986
41262,Căpâlna pe Someş h.,47.245881,23.743887
41274,Gâlgău h.,47.268196,23.668761
41286,Gâlgău,47.280041,23.696672
41298,Glodu Someşului h.,47.280862,23.645939
41315,Rus h.,47.284609,23.592721
41327,Ileanda,47.326449,23.608916
41341,Bizuşa h.,47.342214,23.603225
41365,Răstoci Hm.,47.354691,23.54175
41377,Letca Hm.,47.338043,23.465509
41389,Cuciulat Hm.,47.318944,23.413467
41391,Băbuţeni Hm.,47.296926,23.393673
41406,Ciocmani h.,47.285665,23.359263
41418,Surduc Sălaj Hm.,47.248658,23.339492
41420,Var h.,47.237814,23.299642
41444,Jibou,47.250196,23.265278
41468,Someş Odorhei Hm.,47.331753,23.270021
41470,Inău h.,47.362593,23.271142
41482,Aluniş Sălaj h.,47.384458,23.279231
41494,Benesat Hm.,47.406979,23.291533
41511,Ţicău h.,47.444433,23.303303
41523,Ulmeni Sălaj,47.462303,23.299233
41547,Mireşu Mare PM.,47.499386,23.341525
41561,Fersig h.,47.54803,23.380549
41573,Satulung pe Someş Hm.,47.577306,23.416031
41638,Baia Mare,47.646988,23.552134
41767,Buşag Hm.,47.664666,23.428244
41779,Cicârlău h.,47.687784,23.398557
41793,Ilba h.,47.714721,23.346813
41808,Săbişa h.,47.726215,23.325284
41822,Seini,47.738114,23.284423
41846,Apa Hm.,47.768169,23.187795
41860,Medieşu Aurit Hm.,47.775185,23.120285
41884,Odoreu h.,47.800934,22.993894
42010,Budila hcv.,45.682219,25.815066
42022,Teliu h.,45.694184,25.853792
42034,Valea Teliului h.,45.686481,25.887856
42046,Poiana Florilor h.,45.681065,25.934967
42058,Întorsura Buzăului Hm,45.675341,26.02796
42125,Angheluş h.,45.864791,25.887669
42137,Moacşa hcv,45.857647,25.939165
42149,Biţa h.,45.841365,25.972703
42151,Boroşneu Mare h.,45.825581,26.010904
42163,Ţufalău h.,45.83463,26.03543
42175,Brateş h.,45.843051,26.071819
42199,Covasna Hm.,45.858666,26.147624
42216,Zăbala h.,45.891664,26.163113
42230,Imeci Hm.,45.940423,26.157928
42242,Cătălina h.,45.955393,26.151311
42266,Târgu Secuiesc,45.991834,26.137619
42280,Sânzieni h.,46.045733,26.144657
42292,Poieniţa h.,46.061997,26.167538
42307,Bălani h.,46.0788,26.18932
42319,Mereni Lutoasa h.,46.072918,26.230636
42321,Lemnia h.,46.056511,26.257184
42333,Breţcu Hm.,46.046014,26.295434
42400,Ruşii Munţi h.,46.916173,24.845637
42412,Aluniş Mureş Hm.,46.900371,24.824548
42424,Halta Aluniş h.,46.871444,24.791477
42436,Brâncoveneşti h.,46.853463,24.769618
42448,Ideciu de Jos h.,46.817202,24.75968
42474,Reghin,46.780608,24.719148
42503,Petelea h.,46.739981,24.713822
42527,Periş Mureş h.,46.701738,24.672172
42539,Gorneşti Mureş h.,46.67173,24.65621
42541,Dumbrăvioara Hm.,46.641962,24.64025
42577,Târgu Mureş Nord Hm.,46.553955,24.562636
42606,Târgu Mureş,46.533822,24.549141
42620,Azomureş h.,46.526452,24.536203
42644,Târgu Mureş Sud,46.505937,24.495542
42670,G-ral N. Dăscălescu Hm.,46.490948,24.462393
42694,Vidrasău h.,46.472564,24.414229
42709,Chirileu h.,46.465194,24.376661
42711,Sânpaul Hm.,46.447767,24.34007
42723,Ogra h.,46.443147,24.31939
42735,Cipău h.,46.434431,24.272944
42747,Iernut,46.44055,24.223466
42761,Cuci h.,46.460455,24.163352
42785,Bogata Mureş h.,46.462238,24.117958
42814,Luduş,46.46709,24.088253
42840,Cheţani h.,46.464678,24.018299
42852,Gligoreşti Hm.,46.441946,23.996265
42864,Gura Arieşului h.,46.427196,23.955699
42876,Lunca Mureşului h.,46.418671,23.918453
42929,Sărata h.,47.080773,24.428987
42943,Viişoara h.,47.101732,24.452679
42955,Bistriţa h.,47.145452,24.501748
42967,Bistriţa Nord,47.133052,24.484553
42981,Livezile Bârgăului hc.,47.179252,24.562129
42993,Rusul Bârgăului hc.,47.201577,24.636196
43026,Susenii Bârgăului Hm.,47.217587,24.715508
43040,Josenii Bârgăului hc.,47.214775,24.66951
43052,Bistriţa Bârgăului hcv.,47.184309,24.805928
43064,Mijlocenii Bârgăului h.,47.217353,24.690792
43076,Bistriţa Bârgăului Sat hc.,47.209763,24.760422
43088,Prundul Bârgaului hc.,47.217963,24.741438
43090,Bistriţa Bârgăului h.,47.199931,24.783657
43117,Chintelnic h.,47.104061,24.327614
43129,Chiraleş h.,47.085252,24.314665
43131,Ţigău h.,47.058237,24.324105
43143,Lechinţa,47.018234,24.335932
43155,Vermeş h.,47.002054,24.319745
43167,Brăteni h.,46.929294,24.371945
43179,Sângiorgiu Nou h.,46.964483,24.36398
43181,Sânmihaiu de Câmpie h.,46.893889,24.339452
43193,Miceştii de Câmpie h.,46.869803,24.310214
43208,Budeşti Cluj h.,46.865991,24.262696
43210,Ţagu h.,46.841379,24.237068
43222,Ţagu Sat h.,46.820059,24.226908
43246,Sărmăşel hcv .,46.78064,24.204273
43258,Sărmăşel Gaz Metan h.,46.7533,24.157911
43260,Sărmaşu h.,46.748788,24.15124
43272,Balda h.,46.730654,24.147061
43296,Bota Sat h.,46.632988,24.134506
43301,Miheşu de Câmpie Sat h.,46.680493,24.161978
43313,Miheşu de Câmpie h.,46.63952,24.144162
43325,Zau de Câmpie h.,46.613282,24.125026
43337,Tăureni h.,46.582949,24.092468
43349,Melini Valea Largă h.,46.601581,24.120996
43351,Sânger Tăureni h.,46.549158,24.122191
43375,Luduş Sat hc.,46.48461,24.100793
43416,Cociu h.,47.197331,24.231785
43428,Mogoşeni Hm.,47.208351,24.250942
43430,Nimigea h.,47.236027,24.282798
43442,Nimigea Hm.,47.247962,24.299971
43454,Mititei h.,47.281774,24.318871
43466,Salva,47.302105,24.340671
43480,Coşbuc Hm.,47.373881,24.391339
43492,Bichigiu h.,47.399245,24.383923
43507,Telciu Hm.,47.421459,24.394932
43519,Fiad Hm.,47.494623,24.390612
43521,Romuli h.,47.540149,24.435388
43533,Fiezel h.,47.462141,24.38902
43545,Dealu Ştefăniţei,47.577414,24.415199
43571,Săcel Hm.,47.633082,24.46168
43595,Iza P.M.,47.657535,24.378078
43612,Vişeu de Jos,47.661581,24.374476
43624,Bocicoel h.,47.731869,24.334837
43636,Leordina h.,47.765703,24.28584
43648,Leordina,47.78496,24.260037
43662,Petrova hc.,47.828944,24.211044
43686,Vişeu Bistra h.,47.864195,24.191886
43703,Valea Vişeului,47.9147,24.154589
43741,Lunca la Tisa h.,47.949009,24.043702
43753,Bocicoi  Hm.,47.957394,24.02352
43789,Crăciuneşti h.,47.950863,23.985366
43791,Tisa h.,47.939925,23.950655
43806,Cămara Sighet Hm.,47.942883,23.909355
43820,Sighetu Marmaţiei,47.935521,23.885952
43997,Jucu de Jos hc.,46.877942,23.773949
44018,Apahida h.,46.814586,23.758005
44020,Jucu Hm.,46.862668,23.763981
44032,Răscruci h.,46.900608,23.779748
44044,Bonţida Hm.,46.925181,23.784959
44056,Fundătura h.,46.9504,23.796928
44068,Iclod Hm.,46.978301,23.816052
44070,Livada Someş h.,47.005533,23.843312
44094,Gherla,47.027626,23.9133
44111,Buneşti h.,47.074901,23.912887
44123,Nima h.,47.093097,23.906631
44173,Cuceu Sălaj h.,47.254231,23.201269
44185,Poptelec h.,47.25059,23.169916
44197,Mirşid Hm.,47.231327,23.115531
44240,Zalău Nord,47.221036,23.040904
44276,Guruslău h.,47.255883,22.977625
44288,Borla Hm.,47.274895,22.943422
44290,Bocşa Sălaj h.,47.299046,22.926385
44305,Câmpia Sălaj h.,47.319121,22.898034
44329,Sărmăşag,47.342602,22.829099
44343,Sărmăşag h.,47.367177,22.80727
44355,Derşida h.,47.384705,22.791237
44367,Supur h.,47.452604,22.785867
44379,Supur Haltă hc.,47.465651,22.7944
44381,Giorocuţa h.,47.433614,22.777571
44408,Acâş Hm.,47.526961,22.77624
44434,Săcăşeni h.,47.513401,22.646158
44458,Tăşnad,47.49567,22.578093
44472,Santău h.,47.515438,22.517244
44484,Hotoan h.,47.557583,22.503036
44496,Tiream h.,47.607069,22.483907
44525,Giurtelec hc.,47.298784,22.783974
44537,Uilacu Şimleului hc.,47.27722,22.758925
44563,Şimleu Silvaniei,47.250413,22.770009
44575,Măgura Şimleului hc.,47.234118,22.784042
44587,Nuşfalău h.,47.214512,22.692952
44604,Ipu h.,47.220568,22.608757
44616,Porţi hc.,47.229046,22.552937
44628,Suplacu de Barcău,47.261811,22.54835
44630,Balc hc.,47.296746,22.524861
44654,Sădălbagiu hc.,47.304829,22.460156
44666,Marginea Bihor h.,47.303043,22.418055
44678,Abrami h.,47.31441,22.380114
44680,Chiribiş hc.,47.322269,22.342824
44692,Horea h.,47.32456,22.335987
44707,Marghita,47.33983,22.328199
44721,Petreu hc.,47.33373,22.295554
44733,Abrămuţ hc.,47.321027,22.255913
44745,Făncica h.,47.323756,22.243248
44757,Bolcaş hc.,47.352904,22.232628
44771,Târguşor Bihor h.,47.375628,22.169031
44989,Biharia Hm.,47.155948,21.912314
45000,Tămăşeu h.,47.220404,21.913271
45024,Roşiori Bihor h.,47.263894,21.944572
45048,Diosig Hm.,47.297368,22.012339
45062,Cadia h.,47.326223,22.065232
45086,Săcuieni Bihor,47.360253,22.077881
45098,Săcuieni Bihor h.,47.357969,22.081838
45103,Şilindru Hm.,47.435812,22.047895
45127,Simion h.,47.484188,22.090218
45153,Valea lui Mihai,47.527657,22.132773
45232,Curtuiuşeni h.,47.558398,22.201103
45256,Resighea h.,47.60093,22.284443
45270,Sanislău Hm.,47.631997,22.337641
45294,Marna h.,47.661866,22.387883
45323,Carei,47.696866,22.460132
45359,Domăneşti h.,47.697635,22.593205
45361,Moftin h.,47.697822,22.643637
45373,Gen. Gh. Avramescu Hm.,47.700301,22.679229
45397,Sătmărel h.,47.742632,22.796877
45438,Satu Mare Sud,47.772063,22.87014
45452,Satu Mare,47.796293,22.894596
45464,Ram. Botiz h.,47.836514,22.921237
45488,Micula Hm.,47.900726,22.962139
45505,Porumbeşti Hm.,47.965615,22.991114
45531,Halmeu,47.983013,22.996934
47319,Botiz Hm.,47.825863,22.94554
47668,Clujana h.,46.784387,23.625077
48014,Bistriţa Fabrici h.,47.127078,24.476623
48076,Năsăud h.,47.289881,24.38678
50017,Ploieşti Sud,44.924841,26.026162
50079,Ploieşti Est,44.936343,26.080374
50122,Valea Calugareasca Hm,44.952015,26.166227
50158,Muru hc.,44.94725,26.206965
50160,Cricov Hm.,44.944392,26.23656
50172,Tomşani hc.,44.956248,26.294277
50184,Inoteşti Hm.,44.971673,26.349162
50213,Mizil,44.99451,26.438141
50237,Săhăteni Hm.,45.0299,26.51745
50251,Clondiru hc.,45.063115,26.603516
50263,Ulmeni,45.081379,26.651013
50287,Băile Sarata Monteoru hcv.,45.102344,26.706195
50342,Buzău,45.141997,26.821584
50392,Boboc Hm.,45.208879,26.929052
50419,Zoita Hm.,45.28565,27.012
50433,Râmnicu Sărat,45.379641,27.058151
50471,Voetin h.,45.442383,27.095901
50495,Sihlea Hm.,45.503878,27.112977
50512,Gugeşti,45.566962,27.131114
50548,Coteşti Hm.,45.631994,27.149855
50603,Focşani,45.701732,27.16944
50653,Putna Seacă Hm.,45.805773,27.197333
50691,Mărăşeşti,45.876862,27.215047
50732,Pădureni Putna Hm.,45.931605,27.216028
50744,Călimăneşti Vrancea h.,45.96054,27.210562
50768,Pufeşti Hm.,46.005626,27.200759
50770,Domneşti Târg h.,46.027879,27.191666
50811,Adjud,46.100473,27.190995
50885,Adjudu Vechi h.,46.132162,27.168948
50902,Şişcani h.,46.155331,27.153111
50926,Sascut Hm.,46.208013,27.108951
50940,Orbeni Hm.,46.278527,27.057146
50964,Răcăciuni h.,46.331575,27.011915
50988,Faraoani Hm.,46.39516,26.965635
51009,Siretu Bacău h.,46.443453,26.93435
51011,Valea Seacă,46.476357,26.935277
51035,Letea h.,46.521364,26.934704
51059,Bacău,46.566216,26.894786
51097,Iteşti Hm.,46.668589,26.897022
51102,Şerbeşti Bacău h.,46.696648,26.88768
51126,Galbeni,46.747922,26.882259
51140,Săcueni Roman Hm.,46.846872,26.880051
51152,Ram. Trifeşti,46.879369,26.898474
51190,Roman,46.935112,26.91978
51231,Săbăoani Hm.,47.003861,26.886866
51255,Mirceşti,47.059867,26.843859
51267,Hălăuceşti hc.,47.094278,26.818659
51281,Mogoşeşti hc.,47.131054,26.773282
51293,Muncel Hm.,47.165921,26.747795
51308,Stolniceni h.,47.200528,26.749924
51346,Paşcani Triaj,47.241467,26.733674
51358,Paşcani,47.257429,26.724014
51401,Lunca Siretului h.,47.306554,26.694656
51413,Lespezi Hm.,47.347255,26.671773
51437,Probota h.,47.38771,26.641775
51451,Dolhasca,47.426567,26.608886
51475,Corni h.,47.474817,26.565307
51499,Liteni Hm.,47.515093,26.536295
51516,Băneşti Suceava hc.,47.568443,26.503595
51530,Vereşti,47.607783,26.441033
51554,Văratec,47.631412,26.359021
51607,Suceava,47.667908,26.27465
51645,Suceava Nord,47.676376,26.239333
51671,Dărmăneşti,47.71189,26.14246
51700,Milişăuţi Hm.,47.772127,26.052885
51724,Ţibeni h.,47.82145,26.02589
51750,Dorneşti,47.871564,25.9991
51798,Vicşani,47.941604,25.967608
51920,Ploiesti Est Post 1,44.926169,26.032533
51932,Ploieşti Nord,44.95562,26.022343
51968,Blejoi,44.985142,26.015263
51982,Scăieni h.,45.016268,26.025854
52003,Boldeşti hc.,45.029362,26.024034
52015,Lipăneşti hc.,45.05399,26.023627
52027,Măgurele Sud h.,45.082975,26.033957
52039,Măgurele Prahova h.,45.098003,26.044525
52041,Făget Teleajen,45.138928,26.027674
52053,PO Gura Vitioarei h.,45.151423,26.026884
52077,Vălenii de Munte,45.17961,26.034324
52106,P.mac. Văleni Nord,45.208948,26.039334
52118,Teişani Hm.,45.236432,26.024679
52120,Homorâciu P.M.,45.267982,26.016252
52132,Izvoarele hc.,45.281121,26.002185
52144,Măneciu Pamânteni hc.,45.298838,25.996479
52156,Măneciu,45.319283,25.997912
52170,Măgurele Nord h.,45.125578,26.035356
52259,Buzău Nord Hm.,45.167365,26.772558
52261,Verneşti,45.204679,26.73204
52273,Cândeşti hc.,45.244732,26.715491
52297,Berca Hm.,45.278141,26.675211
52314,Ojasca h.,45.280389,26.6502
52338,Unguriu hc.,45.283186,26.619108
52340,Măgura hcv.,45.281071,26.580774
52364,Pârscov,45.279115,26.55164
52376,Bădila h.,45.257417,26.509449
52390,Ruşavăţu hc.,45.241543,26.490795
52405,Vipereşti hc.,45.23121,26.454067
52431,Cislău hcv.,45.246677,26.377693
52443,Gura Bascii h.,45.262911,26.362016
52455,Mărunţişu hcv.,45.291809,26.362265
52467,Valea Seacă h.,45.27433,26.358479
52479,Pătârlagele Hm.,45.324742,26.358282
52481,Valea Sibiciului h.,45.350334,26.348111
52508,Şeţu h.,45.38132,26.323053
52510,Păltineni h.,45.399375,26.3199
52522,Nehoiu h.,45.418433,26.307029
52546,Nehoiaşu,45.431224,26.30615
52857,Urecheşti Hm.,46.131817,27.090755
52869,Cornăţel Moldova h.,46.132368,27.04487
52883,Bâlca hc.,46.156606,26.989144
52900,Căiuţi Hm.,46.186577,26.929748
52948,Borzeşti Bacău,46.221533,26.856259
52986,Borzeşti Bacău h.,46.243992,26.816687
53007,Oneşti,46.259349,26.778034
53033,Trotuş h.,46.26991,26.706091
53045,Viişoara h,46.274965,26.670272
53069,Târgu Ocna Hm.,46.279224,26.626349
53071,Saline hc.,46.282644,26.606551
53083,Cireşoaia h.,46.295449,26.56238
53095,Dofteana Bacău,46.33108,26.534187
53124,Valea Uzului Haltă h.,46.370912,26.500691
53150,Valea Uzului Hm.,46.380348,26.49277
53174,Comăneşti,46.420945,26.449787
53203,Asău Hm.,46.432894,26.393187
53227,Caraliţa h.,46.443594,26.339539
53239,Goioasa Hm.,46.450986,26.290441
53241,Simbrea Hm.,46.48934,26.216926
53253,Brusturoasa hc.,46.522673,26.172587
53265,Palanca Hm.,46.534517,26.128404
53291,Ghimeş,46.557819,26.108405
53318,Bolovăniş h.,46.584101,26.04923
53332,Lunca de Mijloc Hm.,46.579119,25.995279
53356,Tarcău h.,46.567143,25.974335
53370,Lunca de Sus Hm.,46.537749,25.9637
53382,Utuşoiu h.,46.539202,25.923648
53394,Livezi Ciuc,46.526134,25.889544
53409,Nădejdea Sat h.,46.489409,25.827974
53411,Nădejdea Hm.,46.513116,25.832206
53423,Mihăileni Hm.,46.469555,25.820026
53435,Caracău h.,46.529973,25.858763
53631,Hămeiuş P.M.,46.627993,26.857951
53643,Gârleni Hm.,46.657439,26.813943
53655,Lespezi Bacău h.,46.665892,26.76867
53667,Racova h.,46.70197,26.722269
53679,Buhuşi,46.709976,26.704325
53693,Costişa h.,46.753496,26.654746
53710,Podoleni Hm.,46.797009,26.615649
53734,Zăneşti Neamţ h.,46.822216,26.548627
53758,Roznov,46.838858,26.508924
53760,Săvineşti h.,46.865756,26.469699
53784,Dumbrava h.,46.900539,26.418881
53813,Piatra Neamţ,46.926698,26.361226
53851,Vaduri h.,46.93507,26.257719
53863,Pângăraţi Hm.,46.93015,26.204488
53875,Stejaru h.,46.91538,26.176296
53887,Tarcău Neamţ Hm.,46.893683,26.147146
53916,Bicaz,46.908072,26.09894
54130,Bursuceni h.,47.668186,26.447573
54154,Bucecea Hm,47.761946,26.442147
54180,Leorda Hm.,47.816853,26.481398
54233,Botoşani,47.753653,26.644306
54374,Dorohoi,47.962142,26.392433
54439,Suceava Vest,47.647752,26.223396
54465,Stroieşti,47.615957,26.112992
54489,Ciprian Porumbescu Hm.,47.558176,26.107889
54506,Lucăceşti Hm.,47.505689,26.102085
54520,Berchişeşti Hm.,47.515897,26.019547
54544,Gura Humorului Hm.,47.552594,25.941876
54556,Gura Humorului Oraş,47.55094,25.883856
54570,Frasin,47.541869,25.792189
54594,Molid Hm.,47.566436,25.734383
54609,Vama,47.552543,25.677482
54611,Prisaca Dornei Hm.,47.540066,25.66048
54635,Câmpulung Est Hm.,47.517482,25.596903
54661,Câmpulung Mold.,47.533846,25.552923
54697,Sadova Hm.,47.537008,25.510557
54702,Pojorâta Hm.,47.525497,25.476105
54726,Valea Putnei P.M.,47.489387,25.384956
54740,Mestecăniş,47.450973,25.340306
54764,Iacobeni,47.43004,25.308292
54788,Argestru Hm.,47.382412,25.320692
54817,Vatra Dornei,47.35224,25.357746
54843,Vatra Dornei Băi hc.,47.346644,25.358185
54867,Roşu Hm.,47.353499,25.304515
54879,Dorna Candrenilor h.,47.358132,25.25604
54881,Floreni,47.359307,25.222668
54908,Coşna Hm.,47.371629,25.151213
54922,Grădiniţa,47.342142,25.064498
54946,Larion Hm.,47.332145,25.024526
54958,Silhoasa Hm.,47.348312,25.011138
54972,Lunca Ilvei,47.367162,24.963715
54996,Ilva Mare Hm.,47.364147,24.872468
55005,Măgura Ilvei Hm.,47.379773,24.792518
55017,Poiana Ilvei,47.369316,24.74125
55031,Leşu Ilvei Hm.,47.315572,24.691773
55043,Strâmba h.,47.304459,24.667754
55110,Ilva Mică,47.30589,24.63804
55134,Podereia Feldrului h.,47.285555,24.6168
55146,Feldru Hm.,47.275247,24.593439
55158,Nepos h.,47.279271,24.536831
55172,Rebrişoara Hm.,47.287557,24.47191
55184,Năsăud,47.281218,24.410938
55237,Părhăuţi h.,47.713029,26.090374
55251,Todireşti h.,47.692472,26.04275
55263,Soloneţ h.,47.667005,26.00836
55275,Pârteşti h.,47.644666,25.976218
55287,Cacica Hm.,47.638684,25.930147
55304,Vârfu Dealului Hm.,47.599242,25.938313
55316,Păltinoasa h.,47.570259,25.95892
56114,Topile h.,47.275744,26.670826
56126,Cristeşti Paşcani hc.,47.266486,26.577197
56138,Timişeşti Hm.,47.244169,26.540117
56140,Plăieşu h.,47.220697,26.455231
56152,Târgu Neamţ,47.199745,26.360465
56164,Sfântu Mina h.,47.209366,26.42593
57118,Şeica Mică h.,46.108973,24.169385
57132,Saschiz h.,46.23979,24.961905
57144,Km. 374+700 h.,46.164612,23.948052
57156,Ţăgşor h.,46.796218,24.213202
57182,Şeuca h.,46.335815,24.334918
57223,Pav. CFR Braşov Triaj h.,45.66727,25.63521
60309,Tecuci,45.835275,27.423228
60335,Tecuci Nord hc.(605),45.84572,27.411614
60373,Frunzeasca Hm.,45.901116,27.420023
60385,Rateş Munteni h.,45.928851,27.431794
60402,Berheci Hm.,45.975162,27.438986
60426,Nichişeni,46.045041,27.457753
60438,Ghidigeni Hm.,46.075707,27.478255
60452,Tutova,46.110208,27.554345
60476,Dragalina h.,46.16139,27.59986
60490,Bârlad,46.215162,27.673748
60517,Zorleni,46.266974,27.726413
60531,Banca Hm.,46.336052,27.792151
60555,Dodeşti hc.,46.375772,27.821662
60579,Roşieşti hc.,46.430477,27.833914
60593,Crasna,46.50705,27.824385
60610,Bulboaca h.,46.559481,27.783067
60622,Munteni Hm.,46.591726,27.757906
60658,Vaslui,46.626906,27.726761
60684,Bălteni Hm.,46.690674,27.642684
60696,Brăhăşoaia h.,46.719423,27.607503
60701,Bârzeşti h.,46.744989,27.586904
60725,Buhăieşti,46.797302,27.560066
60749,Rateşu Cuzei h.,46.831967,27.565045
60751,Rebricea Hm.,46.874637,27.56692
60775,Scânteia Hm.,46.923544,27.567189
60799,Grajduri,46.979306,27.550903
60804,Bârnova Hm.,47.013145,27.568645
60828,Picioru Lupului h.,47.053832,27.57344
60842,Ciurea Hm.,47.096295,27.566718
60878,Nicolina,47.147922,27.579245
60921,Iaşi,47.167463,27.56572
61016,Socola,47.139615,27.612556
61028,Remiza T Socola h.,47.14033,27.639681
61066,Holboca Hm.,47.147763,27.689656
61080,Cristeşti Jijia,47.171084,27.726347
61092,Ungheni Prut Hm.,47.200385,27.784789
61224,G-ral. E. Grigorescu Hm.,45.850631,27.278703
61250,Cosmeşti Hm.,45.859689,27.335539
61327,Barboşi Triaj h.,45.402404,27.964221
61339,Şendreni Hm.,45.410345,27.922843
61341,Şerbeştii Vechi h.,45.422205,27.87723
61377,Braniştea h.,45.438136,27.8344
61418,Vasile Alecsandri h.,45.451063,27.796999
61420,Independenţa Hm.,45.478232,27.762443
61444,Piscu h.,45.506948,27.719952
61456,Vameş h.,45.534239,27.701573
61470,Tudor Vladimirescu hc.,45.567067,27.64116
61494,Hanu Conachi Hm.,45.58227,27.594647
61509,Şerbăneşti h.,45.614231,27.551873
61511,Lieşti,45.632765,27.538243
61523,Buceşti h.,45.659832,27.528571
61535,Iveşti Hm.,45.688506,27.517447
61559,Umbrăreşti h.,45.723867,27.492384
61573,Barcea,45.768644,27.474897
61585,Malul Alb h.,45.792992,27.461243
61755,Tuluceşti Hm.,45.562486,28.049607
61779,Şiviţa h.,45.609545,28.061967
61793,Frumuşiţa h.,45.657116,28.071334
61810,Stoicani h.,45.704717,28.083251
61822,Folteşti Hm.,45.739403,28.069634
61846,Chiraftei h.,45.77058,28.013652
61858,Fârţăneşti h.,45.789304,27.981849
61860,Băleni h.,45.813523,27.947869
61872,Umbrăreşti Sat h.,45.848981,27.920895
61884,Târgu Bujor,45.867018,27.923253
61896,Moscu hc.,45.905906,27.932802
61913,Roşcani h.,45.953802,27.937576
61937,Balinteşti h.,46.02432,27.924085
61949,Bereşti Tunel h.,46.107449,27.881886
61951,Bereşti Hm.,46.085138,27.891539
61963,Tălăşmani h.,46.132124,27.841052
61987,Docăneasa hc.,46.114363,27.783253
61999,Lungeşti h.,46.115372,27.751894
62008,Bălăbăneşti h.,46.136065,27.690354
62010,Griviţa h.,46.161075,27.655495
62498,Sagna h.,46.959586,27.000885
62515,Vulpăşeşti h.,46.986525,27.058794
62527,Stăniţa h.,46.990339,27.096392
62541,Piscu Rusului h.,46.958874,27.133037
62565,Dagâţa,46.917845,27.203613
62589,Suhuleţ h.,46.862369,27.223176
62591,Băluşeşti h,46.889234,27.214808
62606,Mareşal C-tin Prezan Hm.,46.829149,27.259971
62618,Zece Prăjini h,46.942784,27.174125
62620,Dumeşti h.,46.837566,27.329865
62644,Rafaila h.,46.832488,27.398399
62656,Negreşti Vaslui Hm.,46.823873,27.451957
62759,Leţcani,47.194608,27.392109
62773,Podu Iloaiei,47.209155,27.284543
62797,Budăi hc.,47.217598,27.222065
62814,Sârca Hm.,47.214939,27.151885
62840,Târgu Frumos,47.205027,27.012684
62864,Pietrişu h.,47.209188,26.953158
62876,Costeşti Iaşi hc.,47.229252,26.920972
62890,Ruginoasa Hm.,47.240854,26.843783
62981,Erbiceni hc.,47.248084,27.249967
63002,Spinoasa h.,47.254964,27.184375
63026,Belceşti Hm.,47.297632,27.081272
63038,Podu Ulmi h.,47.305785,27.057514
63040,Hodora h.,47.329895,27.01367
63064,Cotnari hc.,47.34903,26.971974
63088,Cepleniţa hc.,47.379685,26.963343
63090,Bădeni hc.,47.406047,26.949972
63105,Hârlău,47.418828,26.921674
63181,Movileni h,47.267882,27.374582
63193,Potângeni hc.,47.324561,27.353818
63208,Larga Jijia Hm.,47.331432,27.383489
63222,Vlădeni,47.406398,27.324262
63246,Iacobenii Vechi hc.,47.445959,27.305838
63258,Şoldana hc.,47.483099,27.299985
63260,Andrieşeni hc.,47.514131,27.273968
63272,Corlăteni h,47.922231,26.548676
63284,Rediu hc.,47.54169,27.24614
63296,Răuşeni hc.,47.564654,27.205105
63325,Todireni Hm.,47.597958,27.152937
63349,Jijia h.,47.656663,27.088662
63363,Zlătunoaia h,47.694099,27.056692
63387,Truşeşti,47.765335,27.00425
63399,Buhăceni h.,47.806583,26.995706
63416,Dângeni,47.852881,26.959782
63428,Dângeni Nord h.,47.867397,26.896288
63430,Ungureni Hm.,47.885041,26.796657
63442,Mândreşti h.,47.906129,26.747277
63466,Vorniceni h.,47.922669,26.656175
63478,Mateieni h.,47.920037,26.600495
63480,Broscăuţi h.,47.956931,26.456691
63492,Carasa h.,47.92783,26.518188
70017,Pajura Hm. (IIIK),44.479227,26.023439
70031,Mogoşoaia,44.535652,26.023404
70043,Odăile h.,44.570121,26.052924
70055,Balotesti Hm.,44.591273,26.098994
70079,Căciulaţi Hm.,44.610589,26.158241
70110,Moara Vlasiei Hm.,44.637325,26.215089
70134,Greci h.,44.651922,26.293723
70158,Fierbinti,44.665862,26.368649
70172,Dridu Hm.,44.681443,26.449318
70184,Moldoveni h.,44.718313,26.508205
70201,Armăşeşti Hm.,44.729708,26.561775
70213,Bărbuleşti h.,44.72226,26.601959
70237,Urziceni,44.719504,26.644665
70512,Făurei,45.082765,27.274862
70536,Găiseanca h.,45.091866,27.322297
70550,Deduleşti Hm.,45.108987,27.399664
70574,Ianca hc.,45.127636,27.483758
70586,Plopu,45.140092,27.5218
70603,Urleasca Hm.,45.167987,27.621106
70627,Traian Sat Hm.,45.186994,27.731899
70677,Lacu Sărat,45.227135,27.86796
70706,Brăila,45.281764,27.955967
70768,Baldovineşti Hm.,45.325488,27.906249
70782,Vădeni Hm.,45.364063,27.919998
70794,Zagna Vădeni h.,45.379741,27.962263
70835,Barboşi,45.40232,27.988383
71011,Fileşti Hm.,45.443563,28.006789
71059,Galaţi,45.444502,28.061643
71516,Dâmbu Hm.,44.922734,26.071882
71530,Corlăteşti Hm.,44.899997,26.119488
71542,Râfov h.,44.891209,26.139751
71554,Trestieni h.,44.872258,26.178016
71566,Zănoaga Hm.,44.86267,26.203914
71578,Cornurile h.,44.850457,26.237211
71580,Drăgăneşti Prahova Hm.,44.828179,26.30146
71592,Hătcărău h.,44.813518,26.326922
71619,Ciorani Hm.,44.789803,26.384614
71621,Fulga hc.,44.773897,26.432373
71645,Ialomiţa Hm.,44.748444,26.507759
71669,Alexeni h.,44.686952,26.701469
71683,Brosteni Hm.,44.669042,26.769227
71695,Malu h.,44.653807,26.824974
71700,Km. 74+600 h.,44.649002,26.866474
71712,Sărăţuica Hm.,44.63915,26.902029
71724,Munteni Buzău h.,44.647739,26.972167
71736,Căzăneşti,44.634129,27.003367
71748,Sărăţeni Ialomiţa h.,44.64194,26.931182
71750,Ciochina hc.,44.606747,27.058359
71774,Andrăşeşti Hm.,44.580373,27.147657
71786,Fundata h.,44.580554,27.196191
71798,Perieţi h.,44.58124,27.25627
71827,Slobozia Nouă,44.576974,27.381442
71841,Bucu Hm.,44.606245,27.483814
71865,Ograda h.,44.63145,27.591076
71889,Ţăndărei,44.647055,27.648678
72120,Buzău Sud,45.122021,26.867641
72144,Tăbărăşti h.,45.081364,26.90489
72156,Tăbărăşti Sud h.,45.069117,26.930698
72168,Bentu h.,45.055416,26.977245
72170,Cilibia Hm.,45.043713,27.022166
72182,Movila Oii h.,45.043767,27.073438
72209,C.A.Rosetti Hm.,45.05889,27.15061
72223,Vizireni h.,45.066898,27.192106
72235,CTF Făurei h.,45.077299,27.246553
72261,Cireşu Hm.,44.970776,27.369964
72273,Scărlăteşti hc.,44.940071,27.394735
72297,Dudeşti Hm.,44.888187,27.436741
72314,Spicu,44.815008,27.51205
72338,Murgeanca Hm.,44.742078,27.574157
80036,Bucureşti Băneasa,44.485369,26.074086
80074,Bucureşti Obor,44.450836,26.136806
80098,Pantelimon Sud hc.,44.477493,26.178148
80103,Pantelimon,44.478524,26.191381
80139,Pasarea,44.468761,26.265474
80153,Brăneşti Hm.,44.458548,26.35803
80165,Brăneşti Sat h.,44.461507,26.314993
80177,Fundulea Hm.,44.451931,26.50886
80189,Islaz h.,44.457682,26.38259
80191,Mostiştea h.,44.447598,26.582602
80218,Săruleşti,44.445289,26.656178
80232,Preasna h.,44.445613,26.748473
80256,Lehliu,44.438449,26.858573
80268,Dor Mărunt Sat h.,44.435916,26.923667
80270,Dor Mărunt Hm.,44.435357,26.957693
80294,Dâlga h.,44.433411,27.045413
80309,Bogdana h.,44.431997,27.125195
80323,Dragoş Vodă Hm.,44.431321,27.186361
80347,Ivăneşti h.,44.430047,27.260442
80361,Ciulniţa,44.427815,27.350585
80397,Ogoarele h.,44.425514,27.464488
80402,Perişoru Hm.,44.424614,27.505274
80414,Recolta hc.,44.424099,27.536731
80426,Jegălia,44.423383,27.583666
80438,Ştefan cel Mare h.,44.421715,27.638484
80440,Bărăganu Hm.,44.420579,27.697846
80505,Feteşti,44.417357,27.821569
80543,Ramificaţia Borcea,44.386796,27.844697
80555,Ovidiu,44.37463,27.879194
80579,Dunărea Hm.,44.352287,27.969174
80581,Cernavodă Pod,44.338998,28.02429
80610,Saligny,44.300971,28.066506
80634,Mircea Vodă Hm.,44.266663,28.143967
80684,Medgidia,44.251791,28.273859
80737,Castelu h.,44.251495,28.335672
80749,Dorobanţu,44.238796,28.367805
80751,Poarta Albă h.,44.205631,28.391017
80763,Basarabi,44.171739,28.417838
80775,Valul lui Traian,44.163316,28.507925
80787,Murfatlar h.,44.166006,28.454263
80830,Palas,44.164967,28.58387
80892,Constanţa,44.168619,28.631479
81016,Agigea Nord,44.124973,28.634615
81054,Agigea Ecluză Hm.,44.087453,28.624593
81066,Eforie Nord,44.057928,28.631573
81080,Eforie Sud,44.033692,28.645105
81092,Costineşti Tabără hc.,43.942706,28.631821
81107,Tuzla h.,44.008246,28.642906
81119,Costineşti,43.959612,28.636386
81121,Pescăruş h.,43.903722,28.618669
81133,Neptun hc.,43.886026,28.604829
81171,Neptun,43.860145,28.578587
81183,Mangalia,43.822473,28.581712
81640,Luica h.,44.225235,26.563601
81664,Titan Sud Hm.,44.425438,26.225215
81690,Buc. Sud Gr. Călători,44.422155,26.238143
81717,PO Podu Pitarului h.,44.346144,26.376909
81731,Tânganu h.,44.394123,26.320969
81743,Frunzăneşti h.,44.378984,26.343802
81755,Plătăreşti hc.,44.355807,26.371007
81767,Cucuieţi Sudiţi h.,44.330803,26.387776
81779,Gălbinaşi hc.,44.312233,26.413943
81781,Vasilaţi hc.,44.285603,26.442914
81793,Budeşti Hm.,44.238827,26.466616
81808,Şoldanu h.,44.232824,26.516837
81810,Curcani h.,44.207322,26.592612
81822,Valea Roşie hc.,44.169752,26.615405
81846,Olteniţa,44.085403,26.644972
82060,Căldăraru h.,44.406062,26.277687
82072,Slobozia Veche,44.567929,27.34829
82084,Negoieşti h.,44.233539,26.501523
82101,Slobozia Sud Hm.,44.524716,27.371306
82125,Brâncoveni h.,44.480244,27.368486
82163,Ştefan Vodă h.,44.32611,27.328265
82175,Călăraşi Nord Hm.,44.260575,27.324083
82199,Km. 25+700 h.,44.205386,27.323716
82204,Călăraşi Sud,44.200571,27.33366
82321,Platoneşti h.,44.59822,27.676783
82345,Movila Hm.,44.539846,27.7179
82840,Derin h.,44.34658,28.338749
82852,Nicolae Bălcescu,44.376975,28.380398
82890,Târguşor Dobrogea Hm.,44.464731,28.439987
82955,Cogealac,44.570974,28.56582
82993,Mihai Viteazu Hm.,44.650964,28.67919
83026,Baia Dobrogea,44.728446,28.683705
83040,Ceamurlia de Jos h.,44.76567,28.721907
83090,Babadag,44.892505,28.706493
83129,Zebil h.,44.964891,28.719482
83143,Mihail Kogălniceanu h.,45.038213,28.746387
83167,Cataloi Hm.,45.105169,28.749773
83193,Tulcea Mărfuri,45.169057,28.766117
83222,Tulcea Oraş,45.182399,28.790789
89733,Ram. M.K.P. Aj. M.,44.397547,28.44017
